<?xml version="1.0" encoding="utf-8" ?>
<regions>
	<region name="Автономная Республика Крым" id="179">
		<city name="Алупка" url="Алупка" ukr="Алупка" old="Алубика|Лупико" lat="44.41972" lon="34.04306" />
		<city name="Алушта" url="Алушта" ukr="Алушта" old="Луста|Алустон" lat="44.66722" lon="34.39778" />
		<city name="Армянск" url="Армянск" ukr="Армянськ" old="Армянский Базар (до 1921)" lat="46.10694" lon="33.69306" />
		<city name="Бахчисарай" url="Бахчисарай" ukr="Бахчисарай" lat="44.75278" lon="33.86083" />
		<city name="Белогорск" url="Белогорск_(Крым)" ukr="Білогірськ" old="Карасубазар (до 1944)" lat="45.05444" lon="34.60222" />
		<city name="Джанкой" url="Джанкой" ukr="Джанкой" lat="45.70861" lon="34.39333" />
		<city name="Евпатория" url="Евпатория" ukr="Євпаторія" old="Керкинитида|Гёзлёв (с 1475 до 1784)" lat="45.20000" lon="33.35833" />
		<city name="Инкерман" url="Инкерман" ukr="Інкерман" old="Каламита|Белокаменск (с 1976 до 1991)" lat="44.61417" lon="33.60833" />
		<city name="Керчь" url="Керчь" ukr="Керч" old="Черкио|Воспоро|Корчев|Боспор|Пантикапей" lat="45.33861" lon="36.46806" />
		<city name="Красноперекопск" url="Красноперекопск" ukr="Красноперекопськ" lat="45.955306" lon="33.795000" />
		<city name="Саки" url="Саки_(город)" ukr="Саки" old="Сак" lat="45.13361" lon="33.57722" />
		<city name="Севастополь" url="Севастополь" ukr="Севастополь" old="Ахтиар (с 1783 до 1784, с 1797 до 1826)" lat="44.60000" lon="33.53333" />
		<city name="Симферополь" url="Симферополь" ukr="Сімферополь" old="Акмесджит" lat="44.94806" lon="34.10417" />
		<city name="Старый Крым" url="Старый_Крым" ukr="Старий Крим" old="Кырым|Солхат|Левкополь" lat="45.02917" lon="35.08861" />
		<city name="Судак" url="Судак_(город)" ukr="Судак" old="Солдая|Сугдея|Сидагиос|Сурож" lat="44.85139" lon="34.97250" />
		<city name="Феодосия" url="Феодосия" ukr="Феодосія" old="Кефе|Кафа|Ардабда" lat="45.04889" lon="35.37917" />
		<city name="Щёлкино" url="Щёлкино" ukr="Щолкіне" lat="45.42361" lon="35.81861" />
		<city name="Ялта" url="Ялта_(Крым)" ukr="Ялта" old="Ялита|Красноармейск (с 1921 до 1922)" lat="44.49944" lon="34.15528" />
	</region>
	<region name="Винницкая область" id="159">
		<city name="Бар" url="Бар_(город,_Украина)" ukr="Бар" old="Юзефград (до 1795)|Еленск (до 1979)" lat="49.07806" lon="27.68306" />
		<city name="Бершадь" url="Бершадь" ukr="Бершадь" lat="48.37278" lon="29.53250" />
		<city name="Винница" url="Винница" ukr="Вінниця" lat="49.23333" lon="28.46667" />
		<city name="Гайсин" url="Гайсин" ukr="Гайсин" lat="48.80944" lon="29.39056" />
		<city name="Гнивань" url="Гнивань" ukr="Гнівань" lat="49.08333" lon="28.35000" />
		<city name="Жмеринка" url="Жмеринка" ukr="Жмеринка" lat="49.04250" lon="28.09917" />
		<city name="Ильинцы" url="Ильинцы" ukr="Іллінці" old="Линцы" lat="49.10000" lon="29.20000" />
		<city name="Казатин" url="Казатин" ukr="Козятин" old="Гуйва" lat="49.71667" lon="28.83333" />
		<city name="Калиновка" url="Калиновка_(Калиновский_район_Винницкой_области)" ukr="Калинівка" lat="49.44722" lon="28.52306" />
		<city name="Ладыжин" url="Ладыжин_(город,_Украина)" ukr="Ладижин" lat="48.66667" lon="29.21667" />
		<city name="Липовец" url="Липовец_(город)" ukr="Липовець" lat="49.21611" lon="29.05611" />
		<city name="Могилёв-Подольский" url="Могилёв-Подольский" ukr="Могилів-Подільський" lat="48.45000" lon="27.78333" />
		<city name="Немиров" url="Немиров_(Винницкая_область)" ukr="Немирів" lat="48.97944" lon="28.84389" />
		<city name="Погребище" url="Погребище_(Винницкая_область)" ukr="Погребище" lat="49.48694" lon="29.27333" />
		<city name="Тульчин" url="Тульчин" ukr="Тульчин" old="Нестервар" lat="48.67444" lon="28.84972" />
		<city name="Хмельник" url="Хмельник_(Винницкая_область)" ukr="Хмільник" lat="49.55000" lon="27.96667" />
		<city name="Шаргород" url="Шаргород" ukr="Шаргород" old="Корчмарово" lat="48.75000" lon="28.08333" />
		<city name="Ямполь" url="Ямполь_(Винницкая_область)" ukr="Ямпіль" lat="48.24500" lon="28.27778" />
	</region>
	<region name="Волынская область" id="160">
		<city name="Берестечко" url="Берестечко" ukr="Берестечко" lat="50.35000" lon="25.11667" />
		<city name="Владимир-Волынский" url="Владимир-Волынский" ukr="Володимир-Волинський" lat="50.848056" lon="24.322222" />
		<city name="Горохов" url="Горохов_(город)" ukr="Горохів" lat="50.49944" lon="24.76500" />
		<city name="Камень-Каширский" url="Камень-Каширский" ukr="Камінь-Каширський" old="Камень-Каширск" lat="51.62417" lon="24.96056" />
		<city name="Киверцы" url="Киверцы" ukr="Ківерці" lat="50.83306" lon="25.46139" />
		<city name="Ковель" url="Ковель" ukr="Ковель" lat="51.21667" lon="24.71667" />
		<city name="Луцк" url="Луцк" ukr="Луцьк" old="Луческ" lat="50.74778" lon="25.32444" />
		<city name="Любомль" url="Любомль" ukr="Любомль" lat="51.21583" lon="24.04083" />
		<city name="Нововолынск" url="Нововолынск" ukr="Нововолинськ" old="Нововолынский" lat="50.73333" lon="24.16667" />
		<city name="Рожище" url="Рожище" ukr="Рожище" lat="50.91278" lon="25.27167" />
		<city name="Устилуг" url="Устилуг" ukr="Устилуг" old="Устилогов|Усчилуг|Ружиямполь" lat="50.86000" lon="24.15000" />
	</region>
	<region name="Днепропетровская область" id="161">
		<city name="Апостолово" url="Апостолово" ukr="Апостолове" old="Покровское (до 1933)|Апостолово (до 1936)|Кисиорово (1938)" lat="47.659549603810888" lon="33.717010833356817" />
		<city name="Верхнеднепровск" url="Верхнеднепровск" ukr="Верхньодніпровськ" old="Григорьевка (до 1785)|Новогригорьевка (до 1806)" lat="48.649772426607193" lon="34.330483883076347" />
		<city name="Верховцево" url="Верховцево" ukr="Верхівцеве" lat="48.481236396360828" lon="34.248812715679016" />
		<city name="Вольногорск" url="Вольногорск" ukr="Вільногірськ" lat="48.482411161030939" lon="34.0189079608041" />
		<city name="Днепр" url="Днепр_(город)" ukr="Дніпро" old="Екатеринослав (до 1796)|Новороссийск (до 1802)|Екатеринослав (до 1926)|Днепропетровск (2016)" lat="48.466600814240621" lon="35.018155140696834" />
		<city name="Жёлтые Воды" url="Жёлтые_Воды" ukr="Жовті Води" old="Жёлтая Река (до 1957)" lat="48.356618632772104" lon="33.515066991015232" />
		<city name="Зеленодольск" url="Зеленодольск_(Украина)" ukr="Зеленодольськ" lat="47.563096347949923" lon="33.652359815585982" />
		<city name="Каменское" url="Каменское_(город)" ukr="Кам’янське" old="Днепродзержинск (с 1936 до 2016)" lat="48.507634690383412" lon="34.613190310481471" />
		<city name="Кривой Рог" url="Кривой_Рог" ukr="Кривий Ріг" lat="47.90861" lon="33.34333" />
		<city name="Марганец" url="Марганец_(город)" ukr="Марганець" old="Городище (до 1926)|Коминтерн (до 1938)" lat="47.648016982245423" lon="34.616724875772519" />
		<city name="Никополь" url="Никополь_(Днепропетровская_область)" ukr="Нікополь" old="Никитино (до 1779)|Славянск (до 1782)" lat="47.565621" lon="34.392998" />
		<city name="Новомосковск" url="Новомосковск_(Днепропетровская_область)" ukr="Новомосковськ" lat="48.63278" lon="35.22389" />
		<city name="Павлоград" url="Павлоград" ukr="Павлоград" lat="48.52000" lon="35.87000" />
		<city name="Перещепино" url="Перещепино" ukr="Перещепине" lat="49.017924468647465" lon="35.359774225129115" />
		<city name="Першотравенск" url="Першотравенск_(Днепропетровская_область)" ukr="Першотравенськ" old="Шахтёрский (до 1960)" lat="48.34639" lon="36.40444" />
		<city name="Подгородное" url="Подгородное" ukr="Підгородне" lat="48.573717101113118" lon="35.096627429642709" />
		<city name="Покров" url="Покров_(город,_Украина)" ukr="Покров" old="Орджоникидзе (до 2016)" lat="47.66319055237647" lon="34.081099203359969" />
		<city name="Пятихатки" url="Пятихатки_(город)" ukr="П’ятихатки" lat="48.412554745191727" lon="33.703369395238262" />
		<city name="Синельниково" url="Синельниково" ukr="Синельникове" lat="48.31778" lon="35.51194" />
		<city name="Терновка" url="Терновка_(город)" ukr="Тернівка" lat="48.523063004987769" lon="36.082601388074764" />
	</region>
	<region name="Донецкая область" id="162">
		<city name="Авдеевка" url="Авдеевка" ukr="Авдіївка" lat="48.13472" lon="37.74444" />
		<city name="Амвросиевка" url="Амвросиевка" ukr="Амвросіївка" old="Донецко-Амвросиевка" lat="47.795803" lon="38.480092" />
		<city name="Бахмут" url="Бахмут" ukr="Бахмут" old="Артёмовск (с 1924 до 2016)" lat="48.60444" lon="38.00667" />
		<city name="Белицкое" url="Белицкое" ukr="Білицьке" lat="48.40694" lon="37.18278" />
		<city name="Белозёрское" url="Белозёрское" ukr="Білозерське" old="Белозёрка" lat="48.53667" lon="37.05861" />
		<city name="Бунге" url="Юнокоммунаровск" ukr="Бунге" old="Имени Юных Коммунаров (до 1965)|Юнокоммунаровск (до 2016)" lat="48.22056" lon="38.27389" />
		<city name="Волноваха" url="Волноваха" ukr="Волноваха" lat="47.59778" lon="37.48361" />
		<city name="Горловка" url="Горловка" ukr="Горлівка" lat="48.33361" lon="38.09250" />
		<city name="Горняк" url="Горняк_(Донецкая_область)" ukr="Гірник" old="Соцгородок (до 1958)" lat="48.05000" lon="37.36667" />
		<city name="Дебальцево" url="Дебальцево" ukr="Дебальцеве" lat="48.34111" lon="38.42778" />
		<city name="Доброполье" url="Доброполье" ukr="Добропілля" old="Прасковеевка (до 1935)" lat="48.47028" lon="37.08222" />
		<city name="Докучаевск" url="Докучаевск" ukr="Докучаєвськ" old="Еленовские Карьеры (до 1954)" lat="47.76667" lon="37.68333" />
		<city name="Донецк" url="Донецк_(Украина)" ukr="Донецьк" old="Юзовка (до 1924)|Сталин (до 1929)|Сталино (до 1961)" lat="48.00889" lon="37.80000" />
		<city name="Дружковка" url="Дружковка" ukr="Дружківка" lat="48.62028" lon="37.52778" />
		<city name="Енакиево" url="Енакиево" ukr="Єнакієве" old="Рыково (с 1928 до 1937)|Орджоникидзе (с 1937 до 1943)" lat="48.23111" lon="38.20528" />
		<city name="Ждановка" url="Ждановка_(город)" ukr="Жданівка" old="Ново-Ждановка (до 1966)" lat="48.15000" lon="38.25000" />
		<city name="Железное" url="Железное_(город)" old="Нелеповский (до 1921)|Артёмово (до 2016)" lat="48.3718556" lon="37.8818111" />
		<city name="Зугрэс" url="Зугрэс" ukr="Зугрес" lat="48.0181028" lon="38.2562778" />
		<city name="Иловайск" url="Иловайск" ukr="Іловайськ" lat="47.92500" lon="38.19722" />
		<city name="укр." url="Украинский_язык" ukr="Кальміуське" old="Каракубстрой (до 1949)|Комсомольское (до 2016)" />
		<city name="Константиновка" url="Константиновка_(город)" ukr="Костянтинівка" lat="48.53333" lon="37.71667" />
		<city name="Краматорск" url="Краматорск" ukr="Краматорськ" lat="48.73778" lon="37.58417" />
		<city name="Красногоровка" url="Красногоровка_(город)" ukr="Красногорівка" lat="48.00000" lon="37.51667" />
		<city name="Крестовка" url="Кировское_(город)" ukr="Хрестівка" old="строительства Давыдовской группы шахт (до 1956)|Кировское (до 2016)" lat="48.15000" lon="38.36667" />
		<city name="Курахово" url="Курахово" ukr="Курахове" old="Кураховгрэсстрой (до 1943)|Кураховгрэс (до 1956)" lat="47.9851944" lon="37.2759472" />
		<city name="Лиман" url="Лиман_(город,_Украина)" ukr="Лиман" old="Красный Лиман (с 1923 до 2016)" lat="48.98333" lon="37.80833" />
		<city name="Макеевка" url="Макеевка" ukr="Макіївка" old="Дмитриевск (с 1920 до 1931)" lat="48.05556" lon="37.96111" />
		<city name="Мариуполь" url="Мариуполь" ukr="Маріуполь" old="Павловск (до 1779)|Жданов (с 1948 до 1989)" lat="47.13056" lon="37.56389" />
		<city name="Марьинка" url="Марьинка" lat="47.94194" lon="37.50361" />
		<city name="Мирноград" url="Мирноград" ukr="Мирноград" old="Новоэкономическое (до 1965)|Димитров (с 1965 до 2016)" lat="48.30222" lon="37.26139" />
		<city name="Моспино" url="Моспино" ukr="Моспине" lat="47.87833" lon="38.06444" />
		<city name="Николаевка" url="Николаевка_(город)" ukr="Миколаївка" old="Красный Бык" lat="48.85000" lon="37.78333" />
		<city name="Новоазовск" url="Новоазовск" ukr="Новоазовськ" old="Новониколаевская (до 1923)|Будённовская (1959)" lat="47.11667" lon="38.08333" />
		<city name="Новогродовка" url="Новогродовка" ukr="Новогродівка" old="Гродовка (до 1958)" lat="48.20000" lon="37.33944" />
		<city name="Покровск" url="Покровск_(Донецкая_область)" ukr="Покровськ" old="Гришино (до 1934)|Постышево (до 1938)|Красноармейское (до 1965)|Красноармейск (до 2016)" lat="48.28333" lon="37.18333" />
		<city name="Родинское" url="Родинское" ukr="Родинське" lat="48.35306" lon="37.21000" />
		<city name="Светлодарск" url="Светлодарск" ukr="Світлодарськ" old="Светлодарское" lat="48.43583" lon="38.21639" />
		<city name="Святогорск" url="Святогорск" ukr="Святогірськ" old="Банное (до 1964)|Славяногорск (до 2003)" lat="49.03333" lon="37.58333" />
		<city name="Северск" url="Северск_(Украина)" ukr="Сіверськ" old="Яма (до 1973)" lat="48.86667" lon="38.08333" />
		<city name="Селидово" url="Селидово" ukr="Селидове" old="Селидовка (до 1956)" lat="48.15000" lon="37.30000" />
		<city name="Славянск" url="Славянск" ukr="Слов’янськ" old="Тор (до 1784)|Славянское (до 1933)" lat="48.87000" lon="37.62500" />
		<city name="Снежное" url="Снежное" ukr="Сніжне" old="Васильевка (до 1864)" lat="48.01667" lon="38.76667" />
		<city name="Соледар" url="Соледар" ukr="Соледар" old="Брянцевка (до 1926)|Карла Либкнехта (до 1965)|Карло-Либкнехтово (до 1965)|Карло-Либкнехтовск (до 1991)" lat="48.69694" lon="38.07139" />
		<city name="Торецк" url="Торецк" ukr="Торецьк" old="Щербиновка (до 1936)|Дзержинск (до 2016)" lat="48.40000" lon="37.83333" />
		<city name="Углегорск" url="Углегорск_(город,_Украина)" ukr="Вуглегірськ" old="Хацепетовка (до 1958)" lat="48.31667" lon="38.28333" />
		<city name="Угледар" url="Угледар" ukr="Вугледар" lat="47.77944" lon="37.24750" />
		<city name="Украинск" url="Украинск" ukr="Українськ" old="Лесовка (до 1963)" lat="48.10000" lon="37.36667" />
		<city name="Харцызск" url="Харцызск" ukr="Харцизьк" lat="48.03333" lon="38.15000" />
		<city name="Часов Яр" url="Часов_Яр" ukr="Часів Яр" lat="48.56667" lon="37.83333" />
		<city name="Чистяково" url="Торез_(город)" ukr="Чистякове" old="Слобода Алексеевка (до 1840)|Алексеево-Леоново (до 1857)|Чистяково (до 1964)|Торез (до 2016)" lat="48.0234806" lon="38.6292250" />
		<city name="Шахтёрск" url="Шахтёрск_(Донецкая_область)" ukr="Шахтарськ" old="Катык (до 1953)" lat="48.03333" lon="38.48333" />
		<city name="Ясиноватая" url="Ясиноватая" ukr="Ясинувата" lat="48.11667" lon="37.83333" />
	</region>
	<region name="Житомирская область" id="163">
		<city name="Андрушёвка" url="Андрушёвка" ukr="Андрушівка" old="Андрусовка (до 1859)|Андрушовка (до 1975)" lat="50.01667" lon="29.01667" />
		<city name="Барановка" url="Барановка_(город)" ukr="Баранівка" lat="50.30000" lon="27.66667" />
		<city name="Бердичев" url="Бердичев" ukr="Бердичів" lat="49.89194" lon="28.60000" />
		<city name="Житомир" url="Житомир" ukr="Житомир" lat="50.25444" lon="28.65778" />
		<city name="Коростень" url="Коростень" ukr="Коростень" old="Искоростень" lat="50.95000" lon="28.65000" />
		<city name="Коростышев" url="Коростышев" ukr="Коростишів" lat="50.31861" lon="29.05917" />
		<city name="Малин" url="Малин_(Житомирская_область)" ukr="Малин" lat="50.76889" lon="29.27000" />
		<city name="Новоград-Волынский" url="Новоград-Волынский" ukr="Новоград-Волинський" old="Звягель (до 1795)" lat="50.58333" lon="27.63333" />
		<city name="Овруч" url="Овруч" ukr="Овруч" old="Вручий" lat="51.32444" lon="28.80806" />
		<city name="Олевск" url="Олевск" ukr="Олевськ" old="Ореховец|Олегск" lat="51.22778" lon="27.64806" />
		<city name="Радомышль" url="Радомышль" ukr="Радомишль" old="Радомысль (до 1946)" lat="50.49472" lon="29.23333" />
		<city name="Чуднов" url="Чуднов" ukr="Чуднів" old="Чуднов-Волынский" lat="50.05278" lon="28.09694" />
	</region>
	<region name="Закарпатская область" id="164">
		<city name="Берегово" url="Берегово" ukr="Берегове" old="Лампертсас (до 1504)|Берегсас (до 1964)" lat="48.20250" lon="22.63750" />
		<city name="Виноградов" url="Виноградов_(город)" ukr="Виноградів" old="Севлюш (до 1946)" lat="48.14972" lon="23.02500" />
		<city name="Иршава" url="Иршава" ukr="Іршава" lat="48.31722" lon="23.03750" />
		<city name="Мукачево" url="Мукачево" ukr="Мукачево" old="Мункач" lat="48.44139" lon="22.71361" />
		<city name="Перечин" url="Перечин" ukr="Перечин" lat="48.73333" lon="22.46667" />
		<city name="Рахов" url="Рахов" ukr="Рахів" lat="48.05000" lon="24.21667" />
		<city name="Свалява" url="Свалява" ukr="Свалява" old="Сольва" lat="48.54722" lon="22.98611" />
		<city name="Тячев" url="Тячев" ukr="Тячів" lat="48.01139" lon="23.57222" />
		<city name="Ужгород" url="Ужгород" ukr="Ужгород" old="Унгвар" lat="48.62389" lon="22.29500" />
		<city name="Хуст" url="Хуст" ukr="Хуст" lat="48.18139" lon="23.29778" />
		<city name="Чоп" url="Чоп" ukr="Чоп" lat="48.43333" lon="22.20000" />
	</region>
	<region name="Запорожская область" id="165">
		<city name="Бердянск" url="Бердянск" ukr="Бердянськ" old="Новоногайск|Берды (до 1841)|Осипенко (с 1938 до 1958)" lat="46.759787424073068" lon="36.784501356211933" />
		<city name="Васильевка" url="Васильевка_(Васильевский_район_Запорожской_области)" ukr="Василівка" lat="47.434400233030942" lon="35.280847112087244" />
		<city name="Вольнянск" url="Вольнянск" ukr="Вільнянськ" old="Софиевка (до 1935)|Красноармейское (до 1939)|Червоноармейское (до 1966)" lat="47.944547527555606" lon="35.433134104389069" />
		<city name="Гуляйполе" url="Гуляйполе" ukr="Гуляйполе" lat="47.664436326861214" lon="36.263171611287795" />
		<city name="Днепрорудное" url="Днепрорудное" ukr="Дніпрорудне" old="Дружба (до 1963)|Днепроград (до 1964)" lat="47.385510813983906" lon="34.987864165181094" />
		<city name="Запорожье" url="Запорожье" ukr="Запоріжжя" old="Александровск (до 1921)" lat="47.83778" lon="35.13833" />
		<city name="Каменка-Днепровская" url="Каменка-Днепровская" ukr="Кам’янка-Дніпровська" old="Малая Знаменка|Каменка|Каменка-на-Днепре" lat="47.479156086613692" lon="34.423210684114615" />
		<city name="Мелитополь" url="Мелитополь" ukr="Мелітополь" lat="46.83333" lon="35.36667" />
		<city name="Молочанск" url="Молочанск" ukr="Молочанськ" old="Гальбштадт (до 1915)" lat="47.203786227814859" lon="35.59854650421687" />
		<city name="Орехов" url="Орехов_(город)" ukr="Оріхів" lat="47.567665409209809" lon="35.784868101056325" />
		<city name="Пологи" url="Пологи" ukr="Пологи" old="Чубаревка (с 1928 до 1937)" lat="47.479576923285457" lon="36.261083114617747" />
		<city name="Приморск" url="Приморск_(Украина)" ukr="Приморськ" old="Обиточное (до 1821)|Ногайск (до 1964)|Приморский" lat="46.71889" lon="36.35667" />
		<city name="Токмак" url="Токмак_(Украина)" ukr="Токмак" lat="47.25139" lon="35.70583" />
		<city name="Энергодар" url="Энергодар" ukr="Енергодар" lat="47.49889" lon="34.65583" />
	</region>
	<region name="Ивано-Франковская область" id="166">
		<city name="Болехов" url="Болехов" ukr="Болехів" lat="49.06694" lon="23.85139" />
		<city name="Бурштын" url="Бурштын" ukr="Бурштин" lat="49.26000" lon="24.63500" />
		<city name="Галич" url="Галич_(Ивано-Франковская_область)" ukr="Галич" lat="49.11278" lon="24.72167" />
		<city name="Городенка" url="Городенка" ukr="Городенка" lat="48.66750" lon="25.50028" />
		<city name="Долина" url="Долина_(город)" ukr="Долина" lat="48.97028" lon="24.01083" />
		<city name="Ивано-Франковск" url="Ивано-Франковск" ukr="Івано-Франківськ" old="Станиславов (до 1772)|Станислав (до 1918)|Станиславов (до 1939)|Станислав (до 1962)" lat="48.92278" lon="24.71056" />
		<city name="Калуш" url="Калуш" ukr="Калуш" lat="49.04417" lon="24.35972" />
		<city name="Коломыя" url="Коломыя" ukr="Коломия" lat="48.51667" lon="25.03333" />
		<city name="Косов" url="Косов" ukr="Косів" lat="48.31500" lon="25.09528" />
		<city name="Надворная" url="Надворная" ukr="Надвірна" lat="48.63333" lon="24.58333" />
		<city name="Рогатин" url="Рогатин" ukr="Рогатин" lat="49.41667" lon="24.61667" />
		<city name="Снятын" url="Снятын" ukr="Снятин" lat="48.45000" lon="25.56667" />
		<city name="Тлумач" url="Тлумач" ukr="Тлумач" lat="48.866861" lon="25.001194" />
		<city name="Тысменица" url="Тысменица_(город)" ukr="Тисмениця" lat="48.90083" lon="24.84917" />
		<city name="Яремче" url="Яремче" ukr="Яремче" old="Яремча (до 2006)" lat="48.45361" lon="24.55639" />
	</region>
	<region name="Киевская область" id="156">
		<city name="Белая Церковь" url="Белая_Церковь" ukr="Біла Церква" old="Юрьев (до 1369)" lat="49.79556" lon="30.11667" />
		<city name="Березань" url="Березань_(город)" ukr="Березань" lat="50.31972" lon="31.47000" />
		<city name="Богуслав" url="Богуслав_(город)" ukr="Богуслав" lat="49.55000" lon="30.88333" />
		<city name="Борисполь" url="Борисполь" ukr="Бориспіль" lat="50.35000" lon="30.95000" />
		<city name="Боярка" url="Боярка" ukr="Боярка" lat="50.32917" lon="30.28861" />
		<city name="Бровары" url="Бровары" ukr="Бровари" old="Бровари" lat="50.51139" lon="30.79028" />
		<city name="Буча" url="Буча_(город)" ukr="Буча" lat="50.54639" lon="30.23500" />
		<city name="Васильков" url="Васильков_(город)" ukr="Васильків" old="Васильев (до 1157)" lat="50.17750" lon="30.32167" />
		<city name="Вишнёвое" url="Вишнёвое_(город)" ukr="Вишневе" lat="50.38694" lon="30.37472" />
		<city name="Вышгород" url="Вышгород_(Киевская_область)" ukr="Вишгород" lat="50.58333" lon="30.50000" />
		<city name="Ирпень" url="Ирпень" ukr="Ірпінь" lat="50.51667" lon="30.25000" />
		<city name="Кагарлык" url="Кагарлык" ukr="Кагарлик" old="Городец" lat="49.85222" lon="30.80917" />
		<city name="Киев" url="Киев" ukr="Київ" lat="50.45000" lon="30.51667" />
		<city name="Мироновка" url="Мироновка" ukr="Миронівка" lat="49.65000" lon="30.98333" />
		<city name="Обухов" url="Обухов_(город)" ukr="Обухів" lat="50.10000" lon="30.61667" />
		<city name="Переяслав" url="Переяслав_(Украина)" ukr="Переяслав" old="Переяславль" lat="50.06611" lon="31.44222" />
		<city name="Припять" url="Припять_(город)" ukr="Прип’ять" lat="51.40000" lon="30.05000" />
		<city name="Ржищев" url="Ржищев" ukr="Ржищів" old="Вжищев|Ржищево" lat="49.96111" lon="31.04361" />
		<city name="Сквира" url="Сквира" ukr="Сквира" lat="49.73333" lon="29.68333" />
		<city name="Славутич" url="Славутич_(город)" ukr="Славутич" lat="51.52056" lon="30.75694" />
		<city name="Тараща" url="Тараща" ukr="Тараща" lat="49.55000" lon="30.50000" />
		<city name="Тетиев" url="Тетиев" ukr="Тетіїв" old="Тимошня" lat="49.37083" lon="29.69000" />
		<city name="Узин" url="Узин_(Киевская_область)" ukr="Узин" lat="49.82417" lon="30.44250" />
		<city name="Украинка" url="Украинка_(город)" ukr="Українка" old="Злодиевка (до 1912)|Столыпино (1921)" lat="50.15000" lon="30.75194" />
		<city name="Фастов" url="Фастов" ukr="Фастів" old="Фощево|Хвостов" lat="50.07472" lon="29.91806" />
		<city name="Чернобыль" url="Чернобыль" ukr="Чорнобиль" lat="51.26667" lon="30.21667" />
		<city name="Яготин" url="Яготин" ukr="Яготин" lat="50.25694" lon="31.78167" />
	</region>
	<region name="Кировоградская область" id="167">
		<city name="Александрия" url="Александрия_(Кировоградская_область)" ukr="Олександрія" old="Усовка|Бечея|Александрийск" lat="48.69" lon="33.1052399" />
		<city name="Благовещенское" url="Благовещенское_(город)" ukr="Благовіщенське" old="Грушковский выселок (до 1921)|Благовещенское (с 1921 до 1924)|Ульяновка (с 1924 до 2016)" lat="48.3197" lon="30.2353" />
		<city name="Бобринец" url="Бобринец" ukr="Бобринець" lat="48.05778" lon="32.15806" />
		<city name="Гайворон" url="Гайворон" ukr="Гайворон" lat="48.33333" lon="29.85000" />
		<city name="Долинская" url="Долинская" ukr="Долинська" lat="48.1111417" lon="32.7647722" />
		<city name="Знаменка" url="Знаменка_(город)" ukr="Знам’янка" lat="48.71361" lon="32.67333" />
		<city name="Кропивницкий" url="Кропивницкий" ukr="Кропивницький" old="Елисаветград (до 1924)|Зиновьевск (до 1934)|Кирово (до 1939)|Кировоград (до 2016)" lat="48.51000" lon="32.26667" />
		<city name="Малая Виска" url="Малая_Виска" ukr="Мала Виска" lat="48.65000" lon="31.63333" />
		<city name="Новомиргород" url="Новомиргород" ukr="Новомиргород" lat="48.78333" lon="31.65000" />
		<city name="Новоукраинка" url="Новоукраинка_(город)" ukr="Новоукраїнка" old="Павлово (до 1813)|Павловск (до 1902)" lat="48.31556" lon="31.52694" />
		<city name="Помошная" url="Помошная" ukr="Помічна" lat="48.25000" lon="31.41667" />
		<city name="Светловодск" url="Светловодск" ukr="Світловодськ" old="Хрущёв (до 1962)|Кремгэс (до 1969)" lat="49.05028" lon="33.22722" />
	</region>
	<region name="Луганская область" id="168">
		<city name="Александровск" url="Александровск_(Луганская_область)" ukr="Олександрівськ" old="Александровка (до 1959)" lat="48.58333" lon="39.18333" />
		<city name="Алмазная" url="Алмазная" ukr="Алмазна" old="Изюм (до 1895)" lat="48.51667" lon="38.58333" />
		<city name="Алчевск" url="Алчевск" ukr="Алчевськ" old="Юрьевка (до 1903)|Алчевское (до 1932)|Ворошиловск (до 1961)|Коммунар (до 1991)" lat="48.46722" lon="38.79833" />
		<city name="Антрацит" url="Антрацит_(Луганская_область)" ukr="Антрацит" old="Боково-Антрацит (до 1962)" lat="48.11667" lon="39.08333" />
		<city name="Боково-Хрустальное" url="Вахрушево_(город)" ukr="Боково-Хрустальне" old="Вахрушево (до 2016)" lat="48.16056" lon="38.83889" />
		<city name="Брянка" url="Брянка" ukr="Брянка" lat="48.51333" lon="38.64306" />
		<city name="Вознесеновка" url="Червонопартизанск" ukr="Вознесенівка" old="Червонопартизанск (до 2016)" lat="48.07306" lon="39.79722" />
		<city name="Голубовка" url="Кировск_(Луганская_область)" old="Голубовский Рудник (до 1944)|Кировск (с 1962 до 2016)" lat="48.63750" lon="38.64333" />
		<city name="Горское" url="Горское_(Луганская_область)" ukr="Гірське" lat="48.7420583" lon="38.4937917" />
		<city name="Должанск" url="Свердловск_(Луганская_область)" ukr="Довжанськ" old="Свердловск (до 2016)" lat="48.075389" lon="39.654750" />
		<city name="Зимогорье" url="Зимогорье" ukr="Зимогір’я" old="Черкасское (до 1961)" lat="48.58333" lon="38.93333" />
		<city name="Золотое" url="Золотое" ukr="Золоте" lat="48.68333" lon="38.51667" />
		<city name="Зоринск" url="Зоринск" ukr="Зоринськ" lat="48.4167" lon="38.6167" />
		<city name="Ирмино" url="Ирмино" ukr="Ірміно" old="Петровка (до 1900)|Ирмино (до 1977)|Теплогорск (до 2010)" lat="48.60000" lon="38.60000" />
		<city name="Кадиевка" url="Стаханов_(город)" ukr="Кадіївка" old="Кадиевка (до 1937)|Серго (до 1943)|Кадиевка (до 1978)|Стаханов (до 2016)" lat="48.54722" lon="38.63611" />
		<city name="Кипучее" url="Артёмовск_(Луганская_область)" ukr="Кипуче" old="Екатериновка (до 1921)|Артёмовский (до 1938)|Артёмовск (до 2016)" lat="48.44028" lon="38.74222" />
		<city name="Кременная" url="Кременная" ukr="Кремінна" old="Ново-Глухов (до 1917)" lat="49.05000" lon="38.21667" />
		<city name="Лисичанск" url="Лисичанск" ukr="Лисичанськ" lat="48.91694" lon="38.43056" />
		<city name="Луганск" url="Луганск" ukr="Луганськ" old="Луганский Завод (до 1882)|Ворошиловград (с 1935 до 1958, с 1970 до 1990)" lat="48.58333" lon="39.33333" />
		<city name="Лутугино" url="Лутугино" ukr="Лутугине" old="Шмидтовка (до 1921)" lat="48.40194" lon="39.21028" />
		<city name="Миусинск" url="Миусинск" ukr="Миусинск" old="Штергрэс (до 1965)" lat="48.0727333" lon="38.9002000" />
		<city name="Молодогвардейск" url="Молодогвардейск" ukr="Молодогвардійськ" lat="48.34444" lon="39.65833" />
		<city name="Новодружеск" url="Новодружеск" ukr="Новодружеськ" old="Новодружеское (до 1963)" lat="48.96667" lon="38.35000" />
		<city name="Первомайск" url="Первомайск_(город,_Луганская_область)" ukr="Первомайськ" old="Александровка (до 1865)|Петро-Марьевка (1920)" lat="48.6333" lon="38.5167" />
		<city name="Перевальск" url="Перевальск" ukr="Перевальськ" lat="48.43333" lon="38.81667" />
		<city name="Петрово-Красноселье" url="Петровское_(город)" ukr="Петрово-Красносілля" old="Петровское (с 1959 до 2016)" lat="48.30000" lon="38.87806" />
		<city name="Попасная" url="Попасная_(город)" ukr="Попасна" old="им. Л. М. Кагановича (с 1938 до 1943)" lat="48.63333" lon="38.38000" />
		<city name="Приволье" url="Приволье" ukr="Привілля" old="Ассесорское (до 1753)|Пятая Рота (до 1778)" lat="48.9998917" lon="38.2948250" />
		<city name="Ровеньки" url="Ровеньки_(город)" ukr="Ровеньки" lat="48.08333" lon="39.36667" />
		<city name="Рубежное" url="Рубежное" ukr="Рубіжне" lat="49.01667" lon="38.36667" />
		<city name="Сватово" url="Сватово" ukr="Сватове" old="Сватова Лучка" lat="49.40917" lon="38.16194" />
		<city name="Северодонецк" url="Северодонецк" ukr="Сєвєродонецьк" old="Лисхимстрой (до 1950)" lat="48.95000" lon="38.48333" />
		<city name="Сорокино" url="Краснодон" ukr="Сорокине" old="Краснодон (с 1938 до 2016)" lat="48.30000" lon="39.73333" />
		<city name="Старобельск" url="Старобельск" ukr="Старобільськ" lat="49.26667" lon="38.91667" />
		<city name="Суходольск" url="Суходольск" ukr="Суходільськ" old="Дуванный" lat="48.35361" lon="39.72167" />
		<city name="Счастье" url="Счастье_(Луганская_область)" ukr="Щастя" old="Коваливка" lat="48.73806" lon="39.23111" />
		<city name="Хрустальный" url="Красный_Луч_(город)" ukr="Хрустальний" old="Криндачевка (до 1920)|Красный Луч (до 2016)" lat="48.12139" lon="38.94528" />
	</region>
	<region name="Львовская область" id="169">
		<city name="Белз" url="Белз" ukr="Белз" lat="50.38333" lon="24.01667" />
		<city name="Бобрка" url="Бобрка" ukr="Бібрка" lat="49.63583" lon="24.29361" />
		<city name="Борислав" url="Борислав_(город)" lat="49.28917" lon="23.41889" />
		<city name="Броды" url="Броды" ukr="Броди" old="Любич" lat="50.07806" lon="25.15417" />
		<city name="Буск" url="Буск" ukr="Буськ" old="Бужеск|Бужск" lat="49.96667" lon="24.61667" />
		<city name="Великие Мосты" url="Великие_Мосты" ukr="Великі Мости" lat="50.24000" lon="24.13944" />
		<city name="Винники" url="Винники" ukr="Винники" lat="49.81556" lon="24.12972" />
		<city name="Глиняны" url="Глиняны" ukr="Глиняни" lat="49.82333" lon="24.51667" />
		<city name="Городок" url="Городок_(Львовская_область)" ukr="Городок" old="Грудек Ягеллонский" lat="49.78222" lon="23.64361" />
		<city name="Добромиль" url="Добромиль" ukr="Добромиль" lat="49.56667" lon="22.78333" />
		<city name="Дрогобыч" url="Дрогобыч" ukr="Дрогобич" lat="49.35000" lon="23.50000" />
		<city name="Дубляны" url="Дубляны_(Жолковский_район_Львовской_области)" ukr="Дубляни" lat="49.89611" lon="24.09250" />
		<city name="Жидачов" url="Жидачов" ukr="Жидачів" lat="49.38333" lon="24.13333" />
		<city name="Жолква" url="Жолква" ukr="Жовква" old="Нестеров (с 1951 до 1992)" lat="50.06667" lon="23.96667" />
		<city name="Золочев" url="Золочев_(Львовская_область)" ukr="Золочів" lat="49.809194" lon="24.900583" />
		<city name="Каменка-Бугская" url="Каменка-Бугская" ukr="Кам’янка-Бузька" lat="50.10806" lon="24.34556" />
		<city name="Комарно" url="Комарно_(Украина)" ukr="Комарно" lat="49.63333" lon="23.70000" />
		<city name="Львов" url="Львов" ukr="Львів" lat="49.83333" lon="24.00000" />
		<city name="Моршин" url="Моршин" ukr="Моршин" lat="49.15500" lon="23.87250" />
		<city name="Мостиска" url="Мостиска" ukr="Мостиська" lat="49.79417" lon="23.15250" />
		<city name="Николаев" url="Николаев_(город,_Львовская_область)" ukr="Миколаїв" lat="49.52472" lon="23.97889" />
		<city name="Новояворовск" url="Новояворовск" ukr="Новояворівськ" old="Янтарное (до 1965)|Новояворовское (до 2008)" lat="49.93111" lon="23.57306" />
		<city name="Новый Калинов" url="Новый_Калинов" ukr="Новий Калинів" lat="49.543528" lon="23.022361" />
		<city name="Новый Роздол" url="Новый_Роздол" ukr="Новий Розділ" lat="49.47028" lon="24.13000" />
		<city name="Перемышляны" url="Перемышляны" ukr="Перемишляни" lat="49.67000" lon="24.55944" />
		<city name="Пустомыты" url="Пустомыты" ukr="Пустомити" lat="49.71389" lon="23.91083" />
		<city name="Рава-Русская" url="Рава-Русская" ukr="Рава-Руська" lat="50.22056" lon="23.62250" />
		<city name="Радехов" url="Радехов" ukr="Радехів" lat="50.28278" lon="24.63750" />
		<city name="Рудки" url="Рудки" ukr="Рудки" lat="49.65306" lon="23.48806" />
		<city name="Самбор" url="Самбор" ukr="Самбір" lat="49.51667" lon="23.20000" />
		<city name="Сколе" url="Сколе" ukr="Сколе" lat="49.03778" lon="23.51389" />
		<city name="Сокаль" url="Сокаль" ukr="Сокаль" lat="50.48333" lon="24.28333" />
		<city name="укр." url="Украинский_язык" ukr="Соснівка" old="Кирово" />
		<city name="Старый Самбор" url="Старый_Самбор" ukr="Старий Самбір" lat="49.43333" lon="23.00000" />
		<city name="Стебник" url="Стебник" ukr="Стебник" lat="49.30000" lon="23.56667" />
		<city name="Стрый" url="Стрый_(город)" ukr="Стрий" lat="49.25000" lon="23.85000" />
		<city name="Судовая Вишня" url="Судовая_Вишня" ukr="Судова Вишня" lat="49.78917" lon="23.37222" />
		<city name="Трускавец" url="Трускавец" ukr="Трускавець" lat="49.28056" lon="23.50500" />
		<city name="Турка" url="Турка_(город)" ukr="Турка" lat="49.15444" lon="23.03000" />
		<city name="Угнев" url="Угнев" ukr="Угнів" lat="50.36806" lon="23.74444" />
		<city name="Ходоров" url="Ходоров" ukr="Ходорів" old="Ходоростав" lat="49.41000" lon="24.30944" />
		<city name="Хыров" url="Хыров" ukr="Хирів" lat="49.53556" lon="22.85444" />
		<city name="Червоноград" url="Червоноград" ukr="Червоноград" old="Кристинополь (до 1951)" lat="50.38222" lon="24.22750" />
		<city name="Яворов" url="Яворов_(город)" ukr="Яворів" lat="49.94694" lon="23.39306" />
	</region>
	<region name="Николаевская область" id="170">
		<city name="Баштанка" url="Баштанка" ukr="Баштанка" old="Полтавка (до 1928)" lat="47.40000" lon="32.45000" />
		<city name="Вознесенск" url="Вознесенск" ukr="Вознесенськ" old="Соколы" lat="47.57250" lon="31.31194" />
		<city name="Николаев" url="Николаев_(Николаевская_область)" ukr="Миколаїв" lat="46.96583" lon="32.00333" />
		<city name="Новая Одесса" url="Новая_Одесса" ukr="Нова Одеса" old="Фёдоровка (до 1832)" lat="47.31667" lon="31.78333" />
		<city name="Новый Буг" url="Новый_Буг" ukr="Новий Буг" old="Новопавловка (до 1932)" lat="47.68333" lon="32.50000" />
		<city name="Первомайск" url="Первомайск_(Николаевская_область)" ukr="Первомайськ" old="Ольвиополь|Богополь|Голта" lat="48.05000" lon="30.85000" />
		<city name="Снигирёвка" url="Снигирёвка" ukr="Снігурівка" lat="47.07083" lon="32.79972" />
		<city name="Южноукраинск" url="Южноукраинск" ukr="Южноукраїнськ" old="Константиновка-2 (до 1980)" lat="47.82167" lon="31.17500" />
	</region>
	<region name="Одесская область" id="171">
		<city name="Ананьев" url="Ананьев_(город)" ukr="Ананьїв" lat="47.71722" lon="29.97556" />
		<city name="Арциз" url="Арциз" ukr="Арциз" lat="45.99361" lon="29.43028" />
		<city name="Балта" url="Балта" ukr="Балта" lat="47.93611" lon="29.62250" />
		<city name="Белгород-Днестровский" url="Белгород-Днестровский" ukr="Білгород-Дністровський" old="Аккерман (до 1918, с 1940 до 1941)|Четатя-Албэ (с 1918 до 1940)" lat="46.18333" lon="30.33333" />
		<city name="Беляевка" url="Беляевка" old="Головкивка" lat="46.48333" lon="30.20000" />
		<city name="Березовка" url="Березовка_(Одесская_область)" ukr="Березівка" old="Ново-Александровка" lat="47.20389" lon="30.91250" />
		<city name="Болград" url="Болград" ukr="Болград" lat="45.68444" lon="28.61278" />
		<city name="Вилково" url="Вилково" ukr="Вилкове" old="Липованское" lat="45.39917" lon="29.59361" />
		<city name="Измаил" url="Измаил" ukr="Ізмаїл" old="Тучков (до 1856)" lat="45.35000" lon="28.83333" />
		<city name="Килия" url="Килия" ukr="Кілія" old="Хилия|Ликостомон|Кили" lat="45.46750" lon="29.23778" />
		<city name="Кодыма" url="Кодыма_(город)" ukr="Кодима" lat="48.10000" lon="29.11667" />
		<city name="Одесса" url="Одесса" ukr="Одеса" old="Хаджибей (до 1795)" lat="46.48611" lon="30.72778" />
		<city name="Подольск" url="Подольск_(Одесская_область)" ukr="Подільськ" old="Бирзула (до 1935)|Котовск (до 2016)" lat="47.75000" lon="29.53333" />
		<city name="Раздельная" url="Раздельная" ukr="Роздільна" lat="46.84861" lon="30.07917" />
		<city name="Рени" url="Рени" ukr="Рені" lat="45.45000" lon="28.28333" />
		<city name="Татарбунары" url="Татарбунары" ukr="Татарбунари" old="Татар-Бунар|Татар-Пунар|Татарэшти" lat="45.85000" lon="29.61667" />
		<city name="Теплодар" url="Теплодар" ukr="Теплодар" lat="46.50361" lon="30.32444" />
		<city name="Черноморск" url="Черноморск_(город)" ukr="Чорноморськ" old="Ильичёвск (до 2016)" lat="46.30000" lon="30.66667" />
		<city name="Южное" url="Южное_(город)" ukr="Южне" old="Новая Сычавка (до 1978)" lat="46.62222" lon="31.10083" />
	</region>
	<region name="Полтавская область" id="157">
		<city name="Гадяч" url="Гадяч" ukr="Гадяч" lat="50.371080026272899" lon="33.989054884478939" />
		<city name="Глобино" url="Глобино" ukr="Глобине" old="Малый Кагамлычёк" lat="49.388564681013825" lon="33.263208633096063" />
		<city name="Горишние Плавни" url="Горишние_Плавни" ukr="Горішні Плавні" old="Комсомольск (до 2016)" lat="49.010660078344735" lon="33.656245557432086" />
		<city name="Гребёнка" url="Гребёнка_(Полтавская_область)" ukr="Гребінка" old="Тень (до 1901)" lat="50.117995940706628" lon="32.439585082790586" />
		<city name="Заводское" url="Заводское_(город)" ukr="Заводське" old="Сталинка (до 1962)|Червонозаводское (до 2016)" lat="50.4001986814893" lon="33.390812765877818" />
		<city name="Зеньков" url="Зеньков" ukr="Зіньків" lat="50.208139083815077" lon="34.366841820448244" />
		<city name="Карловка" url="Карловка" ukr="Карлівка" lat="49.45474986051466" lon="35.130796359983336" />
		<city name="Кременчуг" url="Кременчуг" ukr="Кременчук" lat="49.07750" lon="33.42389" />
		<city name="Лохвица" url="Лохвица" ukr="Лохвиця" lat="50.361046095919647" lon="33.265171130910339" />
		<city name="Лубны" url="Лубны" ukr="Лубни" old="Лубно" lat="50.01856412934071" lon="32.986860348472703" />
		<city name="Миргород" url="Миргород" ukr="Миргород" lat="49.96" lon="33.61" />
		<city name="Пирятин" url="Пирятин" ukr="Пирятин" lat="50.240595467142221" lon="32.509299411313542" />
		<city name="Полтава" url="Полтава" ukr="Полтава" old="Лтава" lat="49.57444" lon="34.56861" />
		<city name="Решетиловка" url="Решетиловка" ukr="Решетилівка" lat="49.5636" lon="34.0763" />
		<city name="Хорол" url="Хорол" ukr="Хорол" lat="49.784030560288848" lon="33.258861027996396" />
	</region>
	<region name="Ровненская область" id="172">
		<city name="Березно" url="Березно" ukr="Березне" lat="51.00000" lon="26.75000" />
		<city name="Вараш" url="Вараш" ukr="Вараш" old="Вараш (до 1973)|посёлок ЗУАЭС (до 1977)|Кузнецовск (до 2016)" lat="51.34000" lon="25.85083" />
		<city name="Дубно" url="Дубно" ukr="Дубно" lat="50.39306" lon="25.73500" />
		<city name="Дубровица" url="Дубровица" ukr="Дубровиця" old="Домбровица (до 1940)" lat="51.56667" lon="26.56667" />
		<city name="Здолбунов" url="Здолбунов" ukr="Здолбунів" old="Долбунов" lat="50.51444" lon="26.24944" />
		<city name="Корец" url="Корец" ukr="Корець" old="Корческ" lat="50.61667" lon="27.16667" />
		<city name="Костополь" url="Костополь" ukr="Костопіль" lat="50.88333" lon="26.44306" />
		<city name="Острог" url="Острог_(город)" ukr="Острог" lat="50.33333" lon="26.51667" />
		<city name="Радивилов" url="Радивилов" ukr="Радивилів" old="Радзивилов (до 1939)|Червоноармейск (до 1992)" lat="50.13333" lon="25.25000" />
		<city name="Ровно" url="Ровно" ukr="Рівне" lat="50.61972" lon="26.25139" />
		<city name="Сарны" url="Сарны" ukr="Сарни" lat="51.32694" lon="26.63306" />
	</region>
	<region name="Сумская область" id="158">
		<city name="Ахтырка" url="Ахтырка" ukr="Охтирка" lat="50.307431827929889" lon="34.901558718752327" />
		<city name="Белополье" url="Белополье" ukr="Білопілля" lat="51.153231219175872" lon="34.302536567277855" />
		<city name="Бурынь" url="Бурынь" ukr="Буринь" lat="51.195140125692298" lon="33.826180121768076" />
		<city name="Ворожба" url="Ворожба_(город)" ukr="Ворожба" lat="51.174867309578033" lon="34.229925906900768" />
		<city name="Глухов" url="Глухов_(Сумская_область)" ukr="Глухів" lat="51.676457594262793" lon="33.907781433829157" />
		<city name="Дружба" url="Дружба_(город)" ukr="Дружба" old="Хутор-Михайловский (до 1962)" lat="52.04778591288327" lon="33.939769515140995" />
		<city name="Конотоп" url="Конотоп" ukr="Конотоп" old="Новоселицы" lat="51.236936885859535" lon="33.20270615720311" />
		<city name="Кролевец" url="Кролевец" ukr="Кролевець" lat="51.552868409242272" lon="33.382509437933912" />
		<city name="Лебедин" url="Лебедин" ukr="Лебедин" lat="50.583054119944194" lon="34.482346384831388" />
		<city name="Путивль" url="Путивль" ukr="Путивль" lat="51.334703448783202" lon="33.868636146703849" />
		<city name="Ромны" url="Ромны" ukr="Ромни" lat="50.742812790184374" lon="33.487908121221885" />
		<city name="Середина-Буда" url="Середина-Буда" ukr="Середина-Буда" lat="52.185721127359798" lon="34.038439514946646" />
		<city name="Сумы" url="Сумы" ukr="Суми" lat="50.9067992602539359" lon="34.7992354241621558" />
		<city name="Тростянец" url="Тростянец_(Сумская_область)" ukr="Тростянець" lat="50.474998816601115" lon="34.971631403124718" />
		<city name="Шостка" url="Шостка" ukr="Шостка" lat="51.863015738937406" lon="33.489988774516007" />
	</region>
	<region name="Тернопольская область" id="173">
		<city name="Бережаны" url="Бережаны" ukr="Бережани" lat="49.44611" lon="24.93861" />
		<city name="Борщёв" url="Борщёв" ukr="Борщів" lat="48.802385274005552" lon="26.040006814607921" />
		<city name="Бучач" url="Бучач" ukr="Бучач" lat="49.064791704796143" lon="25.38727617137528" />
		<city name="Залещики" url="Залещики" ukr="Заліщики" lat="48.639241488656452" lon="25.737360606667142" />
		<city name="Збараж" url="Збараж" ukr="Збараж" lat="49.664574286972012" lon="25.775386058653968" />
		<city name="Зборов" url="Зборов" ukr="Зборів" old="Верхостав" lat="49.661605155854083" lon="25.146931109788724" />
		<city name="Копычинцы" url="Копычинцы" ukr="Копичинці" lat="49.108674442124915" lon="25.911870939890534" />
		<city name="Кременец" url="Кременец" ukr="Кременець" lat="50.097451401564861" lon="25.735096191341526" />
		<city name="Лановцы" url="Лановцы" ukr="Ланівці" lat="49.864396698344407" lon="26.078228040992741" />
		<city name="Монастыриска" url="Монастыриска" ukr="Монастириська" old="Монастырище" lat="49.08889" lon="25.16944" />
		<city name="Подгайцы" url="Подгайцы" ukr="Підгайці" lat="49.26667" lon="25.13333" />
		<city name="Почаев" url="Почаев" ukr="Почаїв" lat="50.00786052444294" lon="25.497748215891939" />
		<city name="Скалат" url="Скалат" ukr="Скалат" lat="49.43333" lon="25.98333" />
		<city name="Теребовля" url="Теребовля" ukr="Теребовля" old="Трембовля" lat="49.30000" lon="25.70000" />
		<city name="Тернополь" url="Тернополь" ukr="Тернопіль" old="Тарнополь (до 1944)" lat="49.56667" lon="25.60000" />
		<city name="Хоростков" url="Хоростков" ukr="Хоростків" lat="49.211003042411008" lon="25.921965302586173" />
		<city name="Чортков" url="Чортков" ukr="Чортків" old="Чертков" lat="49.01667" lon="25.80000" />
		<city name="Шумск" url="Шумск" ukr="Шумськ" lat="50.11944" lon="26.11667" />
	</region>
	<region name="Харьковская область" id="155">
		<city name="Балаклея" url="Балаклея" ukr="Балаклія" lat="49.456388888888888" lon="36.838888888888889" />
		<city name="Барвенково" url="Барвенково" ukr="Барвінкове" lat="48.906666666666666" lon="37.013055555555553" />
		<city name="Богодухов" url="Богодухов" ukr="Богодухів" lat="50.16083" lon="35.51639" />
		<city name="Валки" url="Валки_(Харьковская_область)" ukr="Валки" lat="49.838611111111113" lon="35.62166666666667" />
		<city name="Волчанск" url="Волчанск_(Харьковская_область)" ukr="Вовчанськ" lat="50.288" lon="36.9461" />
		<city name="Дергачи" url="Дергачи_(город)" ukr="Дергачі" old="Деркачи (до 1943)" lat="50.111388888888889" lon="36.121944444444445" />
		<city name="Змиёв" url="Змиёв" ukr="Зміїв" old="Змеев|Готвальд (с 1976 до 1990)" lat="49.6878" lon="36.3558" />
		<city name="Изюм" url="Изюм_(город)" ukr="Ізюм" old="Озюм" lat="49.2238" lon="37.2915" />
		<city name="Красноград" url="Красноград" ukr="Красноград" old="Константиноград (до 1922)" lat="49.371944444444445" lon="35.456944444444446" />
		<city name="Купянск" url="Купянск" ukr="Куп’янськ" old="Купенск" lat="49.706388888888888" lon="37.616666666666667" />
		<city name="Лозовая" url="Лозовая" ukr="Лозова" lat="48.889166666666668" lon="36.316111111111113" />
		<city name="Люботин" url="Люботин" ukr="Люботин" lat="49.948888888888888" lon="35.930555555555557" />
		<city name="Мерефа" url="Мерефа" ukr="Мерефа" lat="49.819722222222225" lon="36.06861111111111" />
		<city name="Первомайский" url="Первомайский_(Харьковская_область)" ukr="Первомайський" old="Лихачёво (до 1952)" lat="49.386944444444445" lon="36.214166666666664" />
		<city name="Пивденное" url="Пивденное" ukr="Південне" old="Южный" lat="49.8849" lon="36.0687" />
		<city name="Харьков" url="Харьков" ukr="Харків" lat="50.00000" lon="36.21667" />
		<city name="Чугуев" url="Чугуев" ukr="Чугуїв" lat="49.835277777777776" lon="36.675555555555555" />
	</region>
	<region name="Херсонская область" id="174">
		<city name="Алёшки" url="Алёшки" ukr="Олешки" old="Цюрупинск (с 1928 до 2016)" lat="46.61667" lon="32.71667" />
		<city name="Берислав" url="Берислав" ukr="Берислав" old="Кызы-Кермен (до 1784)" lat="46.83333" lon="33.41667" />
		<city name="Геническ" url="Геническ" ukr="Генічеськ" old="Салинэ (до 1562)|Неонтихос (до 1784)|Геничи (до 1837)" lat="46.17694" lon="34.79889" />
		<city name="Голая Пристань" url="Голая_Пристань" ukr="Гола Пристань" lat="46.51667" lon="32.51667" />
		<city name="Каховка" url="Каховка" ukr="Каховка" old="Ислам-Кермен" lat="46.80000" lon="33.46667" />
		<city name="Новая Каховка" url="Новая_Каховка" ukr="Нова Каховка" old="Ключевое" lat="46.76667" lon="33.36667" />
		<city name="Скадовск" url="Скадовск" ukr="Скадовськ" old="Али-Агок" lat="46.11667" lon="32.91667" />
		<city name="Таврийск" url="Таврийск" ukr="Таврійськ" lat="46.75000" lon="33.41667" />
		<city name="Херсон" url="Херсон" ukr="Херсон" lat="46.63333" lon="32.60000" />
	</region>
	<region name="Хмельницкая область" id="175">
		<city name="Волочиск" url="Волочиск" ukr="Волочиськ" lat="49.536083" lon="26.212722" />
		<city name="Городок" url="Городок_(Хмельницкая_область)" ukr="Городок" lat="49.16667" lon="26.56667" />
		<city name="Деражня" url="Деражня" ukr="Деражня" lat="49.26667" lon="27.43333" />
		<city name="Дунаевцы" url="Дунаевцы_(город)" ukr="Дунаївці" old="Дунай-город" lat="48.90000" lon="26.83333" />
		<city name="Изяслав" url="Изяслав_(город)" ukr="Ізяслав" old="Заслав|Заславль" lat="50.11667" lon="26.80000" />
		<city name="Каменец-Подольский" url="Каменец-Подольский" ukr="Кам’янець-Подільський" old="Каменец|Каменец-Подольск" lat="48.68056" lon="26.58056" />
		<city name="Кобеляки" url="Кобеляки" ukr="Кобеляки" lat="49.147360237501104" lon="34.199270075852667" />
		<city name="Красилов" url="Красилов" ukr="Красилів" lat="49.65000" lon="26.96667" />
		<city name="Нетешин" url="Нетешин" ukr="Нетішин" lat="50.33000" lon="26.64000" />
		<city name="Полонное" url="Полонное" ukr="Полонне" lat="50.11667" lon="27.51667" />
		<city name="Славута" url="Славута" ukr="Славута" lat="50.30278" lon="26.86833" />
		<city name="Староконстантинов" url="Староконстантинов" ukr="Старокостянтинів" lat="49.75556" lon="27.22083" />
		<city name="Хмельницкий" url="Хмельницкий_(город)" ukr="Хмельницький" old="Проскуров (до 1954)" lat="49.42000" lon="27.00000" />
		<city name="Шепетовка" url="Шепетовка" ukr="Шепетівка" lat="50.18333" lon="27.06667" />
	</region>
	<region name="Черкасская область" id="176">
		<city name="Ватутино" url="Ватутино" ukr="Ватутіне" lat="49.01667" lon="31.06667" />
		<city name="Городище" url="Городище_(Черкасская_область)" ukr="Городище" lat="49.29250" lon="31.45806" />
		<city name="Жашков" url="Жашков" ukr="Жашків" lat="49.25000" lon="30.10000" />
		<city name="Звенигородка" url="Звенигородка" ukr="Звенигородка" old="Звенигород" lat="49.08333" lon="30.96667" />
		<city name="Золотоноша" url="Золотоноша" ukr="Золотоноша" lat="49.68333" lon="32.03333" />
		<city name="Каменка" url="Каменка_(Черкасская_область)" ukr="Кам’янка" lat="49.03333" lon="32.10000" />
		<city name="Канев" url="Канев" ukr="Канів" old="Родень" lat="49.74472" lon="31.45583" />
		<city name="Корсунь-Шевченковский" url="Корсунь-Шевченковский" ukr="Корсунь-Шевченківський" old="Корсунь (до 1944)" lat="49.42611" lon="31.28056" />
		<city name="Монастырище" url="Монастырище" ukr="Монастирище" lat="48.99000" lon="29.80111" />
		<city name="Смела" url="Смела" ukr="Сміла" lat="49.21667" lon="31.86667" />
		<city name="Тальное" url="Тальное" ukr="Тальне" lat="48.8862861" lon="30.7027056" />
		<city name="Умань" url="Умань" ukr="Умань" lat="48.75000" lon="30.21667" />
		<city name="Христиновка" url="Христиновка" ukr="Христинівка" lat="48.81306" lon="29.97222" />
		<city name="Черкассы" url="Черкассы" ukr="Черкаси" lat="49.44444" lon="32.05972" />
		<city name="Чигирин" url="Чигирин_(город)" ukr="Чигирин" lat="49.08333" lon="32.66667" />
		<city name="Шпола" url="Шпола" ukr="Шпола" lat="49.0" lon="31.39" />
	</region>
	<region name="Черниговская область" id="177">
		<city name="Батурин" url="Батурин" ukr="Батурин" lat="51.33333" lon="32.88333" />
		<city name="Бахмач" url="Бахмач" ukr="Бахмач" lat="51.18000" lon="32.82694" />
		<city name="Бобровица" url="Бобровица" ukr="Бобровиця" lat="50.73333" lon="31.38333" />
		<city name="Борзна" url="Борзна" ukr="Борзна" lat="51.23333" lon="32.41667" />
		<city name="Городня" url="Городня_(Городнянский_район)" ukr="Городня" lat="51.89250" lon="31.59639" />
		<city name="Ичня" url="Ичня" ukr="Ічня" lat="50.85000" lon="32.40000" />
		<city name="Корюковка" url="Корюковка" ukr="Корюківка" lat="51.78333" lon="32.25000" />
		<city name="Мена" url="Мена_(Украина)" ukr="Мена" lat="51.51667" lon="32.21667" />
		<city name="Нежин" url="Нежин" ukr="Ніжин" old="Уненеж" lat="51.05000" lon="31.90000" />
		<city name="Новгород-Северский" url="Новгород-Северский" ukr="Новгород-Сіверський" lat="51.98333" lon="33.26667" />
		<city name="Носовка" url="Носовка" ukr="Носівка" lat="50.93000" lon="31.58000" />
		<city name="Остёр" url="Остёр_(Черниговская_область)" ukr="Остер" lat="50.94861" lon="30.88111" />
		<city name="Прилуки" url="Прилуки" ukr="Прилуки" lat="50.60000" lon="32.40000" />
		<city name="Семёновка" url="Семёновка_(город)" ukr="Семенівка" lat="52.17722" lon="32.57972" />
		<city name="Сновск" url="Сновск" ukr="Сновськ" old="Коржовка|Щорс (с 1935 до 2016)" lat="51.81667" lon="31.95000" />
		<city name="Чернигов" url="Чернигов" ukr="Чернігів" lat="51.50000" lon="31.30000" />
	</region>
	<region name="Черновицкая область" id="178">
		<city name="Вашковцы" url="Вашковцы_(Вижницкий_район)" ukr="Вашківці" lat="48.37528" lon="25.49778" />
		<city name="Вижница" url="Вижница" ukr="Вижниця" lat="48.25000" lon="25.19167" />
		<city name="Герца" url="Герца" lat="48.15000" lon="26.25000" />
		<city name="Заставна" url="Заставна" ukr="Заставна" lat="48.52028" lon="25.84500" />
		<city name="Кицмань" url="Кицмань" ukr="Кіцмань" lat="48.44250" lon="25.76139" />
		<city name="Новоднестровск" url="Новоднестровск" ukr="Новодністровськ" lat="48.58222" lon="27.43694" />
		<city name="Новоселица" url="Новоселица" ukr="Новоселиця" lat="48.21667" lon="26.26667" />
		<city name="Сокиряны" url="Сокиряны" ukr="Сокиряни" lat="48.45000" lon="27.41667" />
		<city name="Сторожинец" url="Сторожинец" ukr="Сторожинець" lat="48.15972" lon="25.71500" />
		<city name="Хотин" url="Хотин" ukr="Хотин" lat="48.50944" lon="26.49194" />
		<city name="Черновцы" url="Черновцы" ukr="Чернівці" old="Черновицы (до 1944)" lat="48.29083" lon="25.93444" />
	</region>
</regions>
